[
  {
    "name": "qzdqzd",
    "price": 5,
    "lat": 48.876630520787934,
    "lng": 2.3249642926763463
  },
  {
    "name": "cacakiou",
    "price": 5.5,
    "lat": 49.253951690244804,
    "lng": 2.468770830762042
  },
  {
    "name": "zdqqzd",
    "price": 2552,
    "lat": 48.86864053626883,
    "lng": 2.36447553662178
  },
  {
    "name": "Sasha",
    "price": 52,
    "lat": 48.8664950725229,
    "lng": 2.3522758483886723,
    "user": "sasha"
  },
  {
    "name": "cac",
    "price": 45,
    "lat": 48.855992264988316,
    "lng": 2.3591489121819724
  },
  {
    "name": "cacakipuvrm",
    "price": 56,
    "lat": 48.8637848815697,
    "lng": 2.3404198133452296,
    "user": "sasha"
  }
]